住所（所在地）,名称,種別,郵便番号,ＴＥＬ,ＦＡＸ,利用時間,休業日,lat,lon
浦和区駒場2丁目5−6,浦和駒場体育館,体育館,330-0051,048-885-6010,048-885-6011,9:00〜21:00,年末年始,35.8723751,139.6622157
見沼区大和田町1丁目305,大宮体育館,体育館,337-0053,048-685-2121,048-688-1179,9:00〜21:00,年末年始,35.9229167,139.6447369
中央区下落合5丁目8−10,与野体育館,体育館,338-0002,048-853-4998,048-853-4998,9:00〜21:00,年末年始,35.8843701,139.6258538
桜区大字下大久保1676−1,浦和西体育館,体育館,338-0825,048-855-4541,048-840-1465,9:00〜21:00,年末年始,35.8587788,139.6015371
桜区道場4丁目3−1,記念総合体育館,体育館,338-0835,048-851-5050,048-851-5118,9:00〜21:00,年末年始,35.8557382,139.6089199
見沼区堀崎町12−36,大宮武道館,武道館,337-0052,048-687-1011,048-687-9500,9:00〜21:00,年末年始,35.9350596,139.6555737
