名称,種別,ＴＥＬ,住所,緯度,経度
指扇風の子,（民設）放課後児童クラブ,623-1030,西区西大宮1-47-1-1F,35.92323,139.572744
指扇にじのこ,（民設）放課後児童クラブ,625-1231,西区西大宮1-49-9,35.921934,139.5729796
指扇そらの子,（民設）放課後児童クラブ,622-0133,西区西大宮1-47-1-2F,35.92323,139.572744
指扇北のびのび,（民設）放課後児童クラブ,623-8550,西区中釘1691,35.937334,139.572058
指扇北すくすく,（民設）放課後児童クラブ,626-2979,西区中釘1538-1,35.9322629,139.5720649
指扇北きらきら,（民設）放課後児童クラブ,788-1108,西区西大宮3-26-1 1階,35.92797,139.580086
指扇北にこにこ,（民設）放課後児童クラブ,788-1806,西区西大宮3-26-1 2階,35.92797,139.580086
さくらそう　わかば,（民設）放課後児童クラブ,622-5451,西区西遊馬583−1,35.904956,139.568119
さくらそう　ふたば,（民設）放課後児童クラブ,871-8008,西区佐知川809-2,35.905503,139.583374
大宮西児童クラブ,（民設）放課後児童クラブ,623-3831,西区佐知川1112,35.9012301,139.5846586
キッズクラブおおみや西あおぞら,（民設）放課後児童クラブ,788-4889,西区三橋6-382-1,35.913045,139.585799
キッズクラブおおみや西つばさ,（民設）放課後児童クラブ,788-4889,西区三橋6-382-1,35.913045,139.585799
キッズクラブまみや西,（民設）放課後児童クラブ,778-9577,西区飯田新田189-2 馬宮西小学校内,35.885839,139.559936
かたつむり学童クラブ宮前,（民設）放課後児童クラブ,877-4057,北区日進町1-190-5,35.9223309,139.5962236
かたつむり学童クラブ宮前Ⅱ,（民設）放課後児童クラブ,637-0948,北区日進町1-190-39ビューパレ大宮1階,35.921971,139.596662
どんぐりクラブ日進北一,（民設）放課後児童クラブ,667-1304,北区日進町3-203,35.9362036,139.6031998
どんぐりクラブ日進北二,（民設）放課後児童クラブ,871-8490,北区日進町3-231-1クリアスタイル大宮101・102,35.936309,139.602595
どんぐりクラブ日進北三,（民設）放課後児童クラブ,783-4684,北区日進町3-757-2,35.940472,139.606778
宮原小学童保育の会はちのすクラブ,（民設）放課後児童クラブ,796-3912,北区吉野町1-395-1,35.9541013,139.6102598
宮原小学童保育の会クローバークラブ,（民設）放課後児童クラブ,776-9128,北区宮原町4-99-9 VIP宮原1F,35.9475708,139.6055997
スマイルクラブ,（民設）放課後児童クラブ,090-5418-8073,北区宮原町4-83-13,35.94743917,139.6102608
日進小第一学童保育の会,（民設）放課後児童クラブ,652-8360,北区日進町2-911 日進小学校内,35.9252012,139.6076042
日進小第二学童保育の会,（民設）放課後児童クラブ,652-9779,北区日進町2-869　2号室,35.9277338,139.6071113
日進小第三学童保育の会,（民設）放課後児童クラブ,782-5362,北区日進町2-869　3号室,35.9277338,139.6071113
日進小第四学童保育の会,（民設）放課後児童クラブ,782-5314,北区日進町2-869　4号室,35.9277338,139.6071113
大砂土わんぱくキッズ,（民設）放課後児童クラブ,652-2030,北区本郷町229-1　1F,35.938014,139.629327
大砂土にこにこキッズ,（民設）放課後児童クラブ,778-8818,北区本郷町229-1　2F,35.938014,139.629327
大砂土山ねこ,（民設）放課後児童クラブ,663-8016,北区本郷町113　シンエイビル　2F,35.9381309,139.6265823
げんきっず大砂土放課後児童クラブ,（民設）放課後児童クラブ,788-4592,北区土呂町1-7-8　アイリスビル202,35.93075409,139.6304922
げんきっず大砂土第2放課後児童クラブ,（民設）放課後児童クラブ,699-0176,北区土呂町1-7-8　アイリスビル201,35.9306401,139.63048
キッズスペースきぼう,（民設）放課後児童クラブ,778-8786,北区別所町42-7,35.9545076,139.5983168
キッズスペース奈良,（民設）放課後児童クラブ,778-7125,北区奈良町120-6,35.9511662,139.5976417
キッズスペース別所,（民設）放課後児童クラブ,652-0577,北区別所町97-5,35.9581804,139.5948431
泰平小学童保育の会,（民設）放課後児童クラブ,666-3466,北区今羽町369,35.9508169,139.6232595
東大成・植竹小かぜのこクラブ,（民設）放課後児童クラブ,668-6131,北区東大成町2-86-1　2Ｆ,35.9256792,139.6217824
東大成・植竹小ゆめのこクラブ,（民設）放課後児童クラブ,782-5242,北区宮原町1-12-5　2F,35.93060783,139.6191001
東大成・植竹小もりのこクラブ,（民設）放課後児童クラブ,782-8929,北区植竹町1-593-2,35.9278449,139.6246086
本郷学童保育所（第1）,（民設）放課後児童クラブ,668-3441,北区本郷町1325-3,35.9434101,139.6302681
本郷学童保育所（第2）,（民設）放課後児童クラブ,668-3441,北区本郷町1329-3,35.943076,139.63027
キッズスペースつばさ,（民設）放課後児童クラブ,668-1664,北区日進町2-1915-1,35.9332943,139.6096654
キッズスペースみらい,（民設）放課後児童クラブ,782-6515,北区日進町2-1624-1,35.9323031,139.6039442
キッズスペースたいよう,（民設）放課後児童クラブ,780-2826,北区宮原町2-16-1 2階,35.9399012,139.6122013
キッズスペースぎんが,（民設）放課後児童クラブ,666-3711,北区宮原町2-16-1 3階,35.9399012,139.6122013
キッズスペースこころ,（民設）放課後児童クラブ,729-8590,北区宮原町3-53　メゾネットまりえ1号室,35.93547119,139.6125753
げんきっずつばさ放課後児童クラブ,（民設）放課後児童クラブ,729-8941,北区日進町2-544-1,35.92869548,139.6085662
げんきっずつばさ第２放課後児童クラブ,（民設）放課後児童クラブ,657-8903,北区日進町2-822-2 福富ビル１Ｆ,35.929668,139.608241
芝川学童保育所芝川ほたるっこ,（民設）放課後児童クラブ,640-3677,大宮区天沼町1-394,35.90678073,139.6426313
芝川学童保育所芝川みどりっこ,（民設）放課後児童クラブ,642-0922,大宮区天沼町1-415-2,35.9071183,139.6430717
東小学童保育の会,（民設）放課後児童クラブ,644-9400,大宮区堀の内町3-79-1,35.913662,139.6371941
東小第二学童保育の会,（民設）放課後児童クラブ,644-9400,大宮区堀の内町3-79-1,35.913662,139.6371941
東小第三学童保育の会,（民設）放課後児童クラブ,644-9400,大宮区堀の内町3-145 大宮東小学校内,35.91399395,139.6356932
もとの木学童保育,（民設）放課後児童クラブ,783-2620,大宮区堀の内町3-236,35.915883,139.638256
桜木げんごろう,（民設）放課後児童クラブ,645-6565,大宮区桜木町4-328-1,35.9037214,139.6175525
桜木じゃりんこ,（民設）放課後児童クラブ,645-6185,大宮区桜木町4-328-1,35.9037251,139.6175458
桜木ダンデライオン,（民設）放課後児童クラブ,729-6264,大宮区桜木町4-921 1階,35.903375,139.6151
桜木はやぶさ,（民設）放課後児童クラブ,788-3111,大宮区桜木町4-921 2階,35.903375,139.6151
大宮小あおぎりっ子にじ,（民設）放課後児童クラブ,645-5234,大宮区大門町3-3 大宮小学校内,35.906632,139.630051
大宮小あおぎりっ子うみ,（民設）放課後児童クラブ,645-5234,大宮区大門町3-3 大宮小学校内,35.906632,139.630051
大宮小あおぎりっ子そら,（民設）放課後児童クラブ,645-5234,大宮区大門町3-3 大宮小学校内,35.906632,139.630051
大宮南なかよしキッズ,（民設）放課後児童クラブ,643-2277,大宮区吉敷町3-95,35.8998498,139.6335568
大宮南すまいるキッズ,（民設）放課後児童クラブ,782-7721,大宮区浅間町2-60,35.9022296,139.6322453
大宮南にじいろキッズ,（民設）放課後児童クラブ,783-5321,大宮区吉敷町4-84-2 2F,35.898383,139.63101
大宮南みらくるキッズ,（民設）放課後児童クラブ,871-6690,大宮区吉敷町1-81-1 2F,35.902146,139.629446
大宮南そらいろキッズ,（民設）放課後児童クラブ,657-8171,大宮区北袋町1-190-13 2F,35.89531986,139.6413808
大成パンダ,（民設）放課後児童クラブ,652-8730,大宮区大成町2-282 大成小学校内,35.914945,139.6138608
大成イルカ,（民設）放課後児童クラブ,653-2000,大宮区大成町3-446-1　橋本ビル1F,35.9157476,139.6147478
大成カモメ,（民設）放課後児童クラブ,668-3553,大宮区大成町2-365-1 2F,35.9138892,139.6133278
大成コアラ,（民設）放課後児童クラブ,778-7793,大宮区大成町2-282 大成小学校内,35.914945,139.6138608
大成ツバメ,（民設）放課後児童クラブ,778-9115,大宮区大成町2-365-1　3階,35.9138892,139.6133278
大宮北小たけのこクラブ,（民設）放課後児童クラブ,643-1508,大宮区宮町3-119-3,35.9114841,139.6284641
大宮北小まつのこクラブ,（民設）放課後児童クラブ,782-8003,大宮区宮町3-125-1,35.911547,139.628135
三橋小学童保育の会あすなろクラブ,（民設）放課後児童クラブ,642-8042,大宮区三橋2-95-5,35.903379,139.6028771
三橋小学童保育の会バイキングクラブ,（民設）放課後児童クラブ,641-9913,大宮区三橋2-90-1,35.9032074,139.6037199
三橋小学童保育の会パレットクラブ,（民設）放課後児童クラブ,642-3385,大宮区三橋2-55 ガレット21 103,35.902498,139.604487
キッズクラブみはし,（民設）放課後児童クラブ,778-9760,大宮区三橋2-606,35.89817297,139.601566
上小第一学童保育の会,（民設）放課後児童クラブ,647-8989,大宮区上小町1370　マイシティ上小町Ⅱ-105,35.8973041,139.6161164
上小第二学童保育の会,（民設）放課後児童クラブ,778-7899,大宮区上小町1336-1　シティハイム信栄108,35.897642,139.6156618
上小第三学童保育の会,（民設）放課後児童クラブ,783-4306,大宮区上小町1107,35.89973043,139.6141685
片柳のぞみ,（民設）放課後児童クラブ,686-9441,見沼区東新井244-1 片柳小学校内,35.9105745,139.6699025
片柳ひかり,（民設）放課後児童クラブ,686-1702,見沼区東新井244-1 片柳小学校内,35.91078807,139.6702188
春岡・春野小学童保育の会,（民設）放課後児童クラブ,686-1761,見沼区春岡2-35-15 ベルハイツ深作Ⅱ,35.9477689,139.6626638
春岡・春野小第二学童保育の会,（民設）放課後児童クラブ,607-9006,見沼区春岡2-27-18 カーサ・ディ・オンブレロ104,35.9482976,139.660783
春岡・春野小第三学童保育の会,（民設）放課後児童クラブ,716-1478,見沼区春岡2-32-14,35.948446,139.662071
のびる学童ひばり,（民設）放課後児童クラブ,677-4986,見沼区深作3-26-4,35.955631,139.6615328
のびる学童つぐみ,（民設）放課後児童クラブ,627-3062,見沼区深作3-31-6,35.9551564,139.6640307
大谷第一学童保育所,（民設）放課後児童クラブ,685-4957,見沼区蓮沼1726　ＡＭＩＲＹＵ1号室 ,35.9217565,139.6643649
大谷第二学童保育所,（民設）放課後児童クラブ,688-3233,見沼区蓮沼1726　ＡＭＩＲＹＵ2号室,35.921653,139.664341
見沼小学童保育の会どろんこクラブ（第1）,（民設）放課後児童クラブ,729-4324,見沼区東大宮2-43-6,35.94790709,139.633345
見沼小学童保育の会どろんこクラブ（第2）,（民設）放課後児童クラブ,729-8199,見沼区東大宮2-43-6,35.94790709,139.633345
見沼小学童保育の会どろんこクラブ（第3）,（民設）放課後児童クラブ,653-5999,見沼区東大宮2-43-6,35.947816,139.633441
蓮沼小学童保育の会つばさクラブ,（民設）放課後児童クラブ,685-5480,見沼区蓮沼1025-3,35.9344102,139.656264
蓮沼小学童保育の会なないろクラブ,（民設）放課後児童クラブ,685-5480,見沼区蓮沼1025-3,35.9344102,139.656264
蓮沼小学童保育の会あおぞらクラブ,（民設）放課後児童クラブ,687-7840,見沼区風渡野373-5,35.9347848,139.6613766
キッズクラブはすぬま,（民設）放課後児童クラブ,720-8838,見沼区風渡野328-7,35.933998,139.667642
キッズクラブふっとの,（民設）放課後児童クラブ,878-8711,見沼区風渡野323-12,35.934358,139.667362
大砂土東小学童保育の会松の子クラブ,（民設）放課後児童クラブ,686-6949,見沼区大和田町2-1054-7,35.9378938,139.6460496
大砂土東小学童保育の会松の子クラブ第2,（民設）放課後児童クラブ,686-6950,見沼区堀崎町1661,35.939269,139.648255
やまばと学童クラブ,（民設）放課後児童クラブ,689-2126,見沼区染谷2-243-2,35.909398,139.6872892
見沼あかね学童クラブ,（民設）放課後児童クラブ,090-1538-2989,見沼区大和田町2-1358,35.9304923,139.6493327
えびっこ,（民設）放課後児童クラブ,686-1510,見沼区中川227-1-1,35.903013,139.661009
しまっ子放課後児童クラブ,（民設）放課後児童クラブ,793-4799,見沼区東大宮7-8-14,35.9470103,139.6473897
しまっ子第2放課後児童クラブ,（民設）放課後児童クラブ,795-4365,見沼区東大宮6-20-5,35.95001393,139.646224
すみれ放課後児童クラブ,（民設）放課後児童クラブ,855-5657,中央区本町東5-17-25,35.8904916,139.6204091
円阿弥つくしんぼ,（民設）放課後児童クラブ,858-0140,中央区円阿弥4-8-31,35.88992,139.609758
常盤北児童クラブ,（民設）放課後児童クラブ,832-1115,浦和区針ヶ谷4-2-12　常盤北小学校内,35.87888776,139.639092
シリウス,（民設）放課後児童クラブ,852-5910,中央区鈴谷4-13-14-102,35.8717439,139.6258617
キッズクラブ中央大戸,（民設）放課後児童クラブ,711-5010,中央区大戸6-11-18,35.8701877,139.6352818
キッズクラブよの本町,（民設）放課後児童クラブ,767-3988,中央区本町東4−8−26,35.885803,139.621419
新都心ジュピター,（民設）放課後児童クラブ,859-2113,中央区上落合3-1-13,35.889327,139.6258755
新都心マーキュリー,（民設）放課後児童クラブ,711-2517,中央区上落合2-5-34,35.8919808,139.6267059
新都心アース,（民設）放課後児童クラブ,711-6030,中央区上落合2-9-2ベルカントビル201,35.889139,139.626541
友愛新都心放課後児童クラブ,（民設）放課後児童クラブ,601-1080,中央区新都心4-9,35.891461,139.6300621
友愛第2新都心放課後児童クラブ,（民設）放課後児童クラブ,853-6699,中央区上落合1-5-7,35.8904054,139.6321976
友愛第3新都心放課後児童クラブ,（民設）放課後児童クラブ,859-5152,中央区上落合1-10-8,35.8910114,139.6291851
友愛第4新都心放課後児童クラブ,（民設）放課後児童クラブ,749-1002,中央区新都心4-12 ミツエビル401,35.89180315,139.6298823
たんぽぽ,（民設）放課後児童クラブ,852-5077,桜区大久保領家429-1,35.8681393,139.604343
西浦和さくらっ子,（民設）放課後児童クラブ,865-6554,桜区田島6-2-24,35.8417143,139.6299591
西浦和さくらっ子第2,（民設）放課後児童クラブ,862-7751,桜区田島2-11-14,35.84441,139.63272
カラフルきっず,（民設）放課後児童クラブ,789-6828,桜区町谷2-15-12,35.8589494,139.6195728
アフタースクール　ポポラー埼玉さくら園,（民設）放課後児童クラブ,851-0022,桜区道場2-1-1　サクラディア　アミューズコート1Ｆ,35.8597839,139.6172426
かたつむり学童クラブ栄和,（民設）放課後児童クラブ,716-7176,桜区栄和2-12-12-101,35.86302,139.6178
かたつむり学童クラブ西堀,（民設）放課後児童クラブ,628-3129,"桜区西堀9-27-37　ビューハイツ101,102",35.86297,139.629559
第一みのり学童クラブ,（民設）放課後児童クラブ,837-7244,桜区西堀7-23-5,35.8583137,139.6262281
第二みのり学童クラブ,（民設）放課後児童クラブ,837-7244,桜区西堀7-23-3-101,35.8582209,139.6262788
あすなろ神田児童クラブ,（民設）放課後児童クラブ,856-2125,桜区上大久保353-5,35.8727241,139.6122451
聖徳学童くらぶ,（民設）放課後児童クラブ,865-3030,桜区新開2-17-13,35.85095,139.619
太陽の家,（民設）放課後児童クラブ,831-7678,浦和区岸町5-15-6,35.850848,139.651667
北浦和スターズ,（民設）放課後児童クラブ,762-8780,浦和区北浦和2-7-4,35.876591,139.646043
北浦和ドリームズ,（民設）放課後児童クラブ,762-8707,浦和区北浦和2-7-4,35.876591,139.646043
北浦和レインボーズ,（民設）放課後児童クラブ,799-3015,浦和区北浦和2-2-4,35.876329,139.645628
領家サファイア,（民設）放課後児童クラブ,833-2308,浦和区針ヶ谷２丁目１０番４号　３階,35.88131,139.642843
領家ルビー,（民設）放課後児童クラブ,833-2308,浦和区針ヶ谷２丁目１０番４号　３階,35.88131,139.642843
ぽぷら学童クラブ,（民設）放課後児童クラブ,881-5828,浦和区瀬ヶ崎4-32-5,35.8774581,139.6657099
くすのき学童クラブ,（民設）放課後児童クラブ,711-8373,浦和区瀬ケ崎1‐30‐8,35.877233,139.660565
みつばち学童クラブ,（民設）放課後児童クラブ,711-3868,浦和区大東3-20-7,35.8834244,139.6652688
上木崎ユニコーン,（民設）放課後児童クラブ,711-4890,浦和区上木崎2-2-13,35.88594,139.640443
上木崎フェニックス,（民設）放課後児童クラブ,711-5727,浦和区上木崎4-4-32,35.884729,139.644034
上木崎グリフォン,（民設）放課後児童クラブ,789-7090,浦和区上木崎5−6−18,35.887793,139.647849
木崎ペガサス,（民設）放課後児童クラブ,833-0990,浦和区上木崎6-9-10,35.8836419,139.6517394
木崎スピカ,（民設）放課後児童クラブ,764-8122,浦和区領家4-13‐5,35.8819326,139.6544823
本太学童クラブ空,（民設）放課後児童クラブ,885-9657,浦和区本太4-12-8　第5グリーンハウス101・102,35.866763,139.655962
本太学童クラブ海,（民設）放課後児童クラブ,070-4225-3068,浦和区本太4-9-22,35.8669408,139.6582498
本太学童クラブ光,（民設）放課後児童クラブ,080-2561-5458,浦和区本太2-21-11 2階,35.86550371,139.6600116
本太学童クラブ星,（民設）放課後児童クラブ,070-4480-6552,浦和区本太2-21-11 1階,35.86550371,139.6600116
仲本キッズ・ハウス,（民設）放課後児童クラブ,882-8051,浦和区本太2-12-2,35.8605184,139.6614874
仲本キッズ・ハウス2’ｎｄ,（民設）放課後児童クラブ,887-0033,浦和区本太2-9-1-101,35.8629669,139.6581593
仲本キッズ・ハウス３ｒｄ,（民設）放課後児童クラブ,816-3939,浦和区本太1-9-5,35.861847,139.664676
らいおんきっず,（民設）放課後児童クラブ,711-3779,浦和区東仲町9-8,35.86078586,139.6570944
うらわ子供の家楽育,（民設）放課後児童クラブ,822-8335,浦和区仲町2-15-9,35.8591875,139.6511135
うらわ子供の家楽育アイリー,（民設）放課後児童クラブ,822-8335,浦和区仲町2-15-4アイリーSEVENCOURT1階,35.85901,139.650987
なかちょう子供の家楽育,（民設）放課後児童クラブ,090-3801-5054,浦和区常盤8-18-4　仲町小学校内,35.86432919,139.641198
のっぱら,（民設）放課後児童クラブ,711-6270,中央区大戸1-34-17　1階,35.86155,139.63597
のっぱら第２,（民設）放課後児童クラブ,711-3558,中央区大戸1-34-17　2階,35.86148457,139.6358022
友愛高砂放課後児童クラブ,（民設）放課後児童クラブ,833-7721,浦和区岸町4-21-12,35.8547349,139.6554764
友愛第2高砂放課後児童クラブ,（民設）放課後児童クラブ,832-1440,浦和区岸町7-1-7,35.85563,139.654318
友愛第3高砂放課後児童クラブ,（民設）放課後児童クラブ,833-9493,浦和区岸町4-25-2,35.8555984,139.6551837
友愛第4高砂放課後児童クラブ,（民設）放課後児童クラブ,822-0018,浦和区高砂2-6-15,35.8580322,139.6545702
友愛常盤放課後児童クラブ,（民設）放課後児童クラブ,832-7845,浦和区常盤9-13-7,35.8698472,139.6463229
友愛第2常盤放課後児童クラブ,（民設）放課後児童クラブ,822-7711,浦和区北浦和4-3-15,35.8716187,139.6451144
友愛第3常盤放課後児童クラブ,（民設）放課後児童クラブ,822-5505,浦和区常盤9-19-9,35.87084411,139.6458222
友愛第4常盤放課後児童クラブ,（民設）放課後児童クラブ,833-3628,浦和区北浦和4-3-11,35.87175834,139.6449872
学童保育南子どもの家,（民設）放課後児童クラブ,864-7714,南区根岸1-19-13,35.8432483,139.6617927
わくわく子供の家,（民設）放課後児童クラブ,863-0320,南区白幡1-5-14　2階202,35.845975,139.65449
辻わくわく子供の家,（民設）放課後児童クラブ,711-7780,南区辻5-6-14　KSマンション辻南103,35.834568,139.658807
向ひまわり,（民設）放課後児童クラブ,873-3981,南区大谷口5436-4,35.8582492,139.6959449
向ひまわり第２,（民設）放課後児童クラブ,711-7664,南区大谷口5425,35.857299,139.694526
田島げんきっ子,（民設）放課後児童クラブ,711-8311,桜区田島10-12-1　田島小学校内,35.8379785,139.6234866
けやきホームズ学童クラブⅠ,（民設）放課後児童クラブ,710-6888,南区鹿手袋7-13-3,35.8472564,139.6355225
けやきホームズ学童クラブⅡ,（民設）放課後児童クラブ,864-2850,南区別所7-15-20,35.846522,139.644813
けやきホームズ学童クラブⅢ,（民設）放課後児童クラブ,864-2850,南区別所7-15-20,35.8464736,139.644781
ゆめの樹学童クラブ,（民設）放課後児童クラブ,711-4445,南区鹿手袋5-5-12,35.844453,139.642427
ゆめの樹アカデミー学童クラブ,（民設）放課後児童クラブ,090-8051-5495,南区鹿手袋4-17-22,35.84859068,139.6383552
ゆめの駅学童クラブ,（民設）放課後児童クラブ,711-5525,南区鹿手袋3-15-2,35.849743,139.641643
辻南小児童クラブ,（民設）放課後児童クラブ,839-0123,南区辻8-7-32,35.8315538,139.6656959
辻南小第2児童クラブ,（民設）放課後児童クラブ,839-0122,南区辻8-22-18　303・305,35.8291057,139.6614611
はる学童クラブ,（民設）放課後児童クラブ,839-5750,南区曲本5-4-8　1階,35.8385867,139.6453075
はる第2学童クラブ,（民設）放課後児童クラブ,762-6269,南区曲本5-4-8　2階,35.838588,139.6453084
はる第3学童クラブ,（民設）放課後児童クラブ,865-8430,南区曲本4-7-8,35.8376545,139.64053
きっず＆はる学童クラブ,（民設）放課後児童クラブ,789-6066,南区沼影1-11-2武蔵浦和sky&garden2階,35.84287,139.6472
キッズスクール8（エイト）,（民設）放課後児童クラブ,767-7618,南区白幡5-1-28-303,35.8460427,139.6505499
かたつむり学童クラブ文蔵,（民設）放課後児童クラブ,717-5606,南区文蔵3-35-17　ITヒルズ1階,35.839512,139.671625
かたつむり学童クラブ文蔵Ⅱ,（民設）放課後児童クラブ,711-5265,南区文蔵3-35-6ウィステリアメゾン1F,35.839693,139.673114
友愛南浦和東放課後児童クラブ,（民設）放課後児童クラブ,881-7750,南区南浦和2-40-10,35.848206,139.671866
友愛第２南浦和東放課後児童クラブ,（民設）放課後児童クラブ,885-3131,南区南浦和2-28-16,35.849351,139.671179
友愛第3南浦和東放課後児童クラブ,（民設）放課後児童クラブ,711-1108,南区南浦和2‐18‐12,35.84964,139.670989
善前かえでクラブ,（民設）放課後児童クラブ,762-3326,南区太田窪2367　1階,35.853461,139.682065
善前すみれクラブ,（民設）放課後児童クラブ,755-9181,南区太田窪2367　2階,35.853461,139.682065
友愛原山東放課後児童クラブ,（民設）放課後児童クラブ,887-5757,南区広ヶ谷戸388-5,35.865046,139.682584
尾間木学童クラブゆずりは,（民設）放課後児童クラブ,874-3488,緑区東浦和8-20-20　2階,35.86819004,139.6947847
尾間木学童クラブとちのき,（民設）放課後児童クラブ,875-6004,緑区東浦和8-20-20　1階,35.86819004,139.6947847
尾間木学童クラブなのはな,（民設）放課後児童クラブ,875-3336,緑区東浦和8-2-25　1階,35.871004,139.698919
尾間木学童クラブこすもす,（民設）放課後児童クラブ,874-1550,緑区東浦和8-2-25　2階,35.871004,139.698919
尾間木学童クラブすずらん,（民設）放課後児童クラブ,070-3971-6818,緑区東浦和8‐11‐5（尾間木小学校校舎内）,35.869037,139.697428
かたつむり学童クラブ大牧,（民設）放課後児童クラブ,717-1624,緑区東浦和６−１６−３,35.873833,139.705307
三室あおぞら,（民設）放課後児童クラブ,873-7442,緑区三室1498-1,35.8838088,139.6758847
見沼学童クラブ,（民設）放課後児童クラブ,874-3252,緑区芝原2-15-8,35.882439,139.694056
鳥海学園放課後児童クラブ,（民設）放課後児童クラブ,873-6171,緑区大間木3−39−8,35.8791036,139.690121
友愛原山放課後児童クラブ,（民設）放課後児童クラブ,887-9110,緑区太田窪3-7-16,35.863425,139.6736755
友愛第２原山放課後児童クラブ,（民設）放課後児童クラブ,885-8880,緑区太田窪3-7-16,35.863425,139.6736755
松木学童,（民設）放課後児童クラブ,810-5237,緑区三室1829-15,35.87891156,139.6820005
中尾学童クラブ,（民設）放課後児童クラブ,874-1614,緑区中尾1403-1,35.8738767,139.6853103
美園放課後児童クラブ,（民設）放課後児童クラブ,878-5659,緑区美園5-33,35.8906454,139.7353881
美園第二放課後児童クラブ,（民設）放課後児童クラブ,711-8940,緑区美園5-23-15,35.891851,139.735015
あいう園美園放課後児童クラブ,（民設）放課後児童クラブ,878-0606,緑区美園5-49-15,35.8902195,139.7337671
あいう園ひふみ放課後児童クラブ,（民設）放課後児童クラブ,789-7293,緑区美園5-49-13,35.889354,139.734491
あいう園いろは放課後児童クラブ,（民設）放課後児童クラブ,764-8282,緑区美園2-15-6,35.899932,139.722295
あいう園いろは第二放課後児童クラブ,（民設）放課後児童クラブ,826-6068,緑区美園2-15-6,35.899932,139.722295
キッズクラブみその,（民設）放課後児童クラブ,799-3933,緑区美園5-34-2,35.891479,139.73496
キッズクラブ浦和みその北,（民設）放課後児童クラブ,878-5500,緑区美園2-13-2,35.900071,139.7231
キッズクラブ浦和みその北第2,（民設）放課後児童クラブ,711-6138,緑区美園2-13-2,35.90005592,139.7229883
美園北放課後児童クラブ第１,（民設）放課後児童クラブ,799-3838,緑区美園2-12-11美園北小学校内,35.90067,139.7234
美園北放課後児童クラブ第２,（民設）放課後児童クラブ,799-3838,緑区美園2-12-11美園北小学校内,35.90067,139.7234
川通,（民設）放課後児童クラブ,799-0851,岩槻区大野島485-3,35.9411169,139.7312427
河合小児童クラブ,（民設）放課後児童クラブ,758-3821,岩槻区平林寺371-4,35.967739,139.6719093
あすなろ太田児童クラブ,（民設）放課後児童クラブ,758-3641,岩槻区仲町1-5-7　2F,35.9460494,139.7015126
あすなろ太田第2児童クラブ,（民設）放課後児童クラブ,758-3640,岩槻区仲町1-5-7　1F,35.9460435,139.7015162
キッズクラブいわつき西,（民設）放課後児童クラブ,795-6188,岩槻区西原2-15,35.9505616,139.6882189
キッズクラブいわつき西シエル,（民設）放課後児童クラブ,812-7111,岩槻区西町3-2-8,35.953194,139.686294
キッズクラブいわつき北,（民設）放課後児童クラブ,812-7900,岩槻区西町4-1-1　小島ビル201,35.95447112,139.6891573
キッズクラブいわつき東,（民設）放課後児童クラブ,795-8666,岩槻区東岩槻2-2-17　吉岡ビルB201号室,35.965039,139.70907
さいたま児童クラブ愛いわつき,（民設）放課後児童クラブ,758-6118,岩槻区愛宕町4-18 アライビル1F,35.9544659,139.6963796
東武学童クラブ,（民設）放課後児童クラブ,872-6365,岩槻区真福寺1464番地1,35.93463733,139.7129942
宮前放課後児童クラブ,（公設）放課後児童クラブ,622-0844,西区宮前町４４３,35.9241206,139.5946766
佐知川放課後児童クラブ,（公設）放課後児童クラブ,623-6927,西区佐知川２９９−１６,35.9036393,139.5875339
植水放課後児童クラブ,（公設）放課後児童クラブ,625-1908,西区中野林１７４−１,35.8937691,139.5921074
馬宮放課後児童クラブ,（公設）放課後児童クラブ,625-8826,西区西遊馬５３３−１,35.9051354,139.5726979
栄放課後児童クラブ,（公設）放課後児童クラブ,625-9779,西区指扇６１０−３,35.9076897,139.5819062
植水第二放課後児童クラブ,（公設）放課後児童クラブ,625-6027,西区中野林２２５−３,35.8936735,139.5936994
植竹放課後児童クラブ,（公設）放課後児童クラブ,652-3247,北区盆栽町４３０,35.9273665,139.6281166
宮原放課後児童クラブ,（公設）放課後児童クラブ,667-3808,北区宮原町４−６６−１３,35.9471921,139.6109898
本郷放課後児童クラブ,（公設）放課後児童クラブ,664-7551,北区本郷町１０６５−３,35.9456886,139.6262123
大砂土放課後児童クラブ,（公設）放課後児童クラブ,653-2793,北区本郷町１７−７,35.9376549,139.6262295
三橋放課後児童クラブ,（公設）放課後児童クラブ,644-2978,大宮区三橋２−５９,35.9028746,139.6039596
天沼放課後児童クラブ,（公設）放課後児童クラブ,645-7988,大宮区天沼町１−１９４,35.9062195,139.636951
七里放課後児童クラブ,（公設）放課後児童クラブ,687-9335,見沼区東宮下３９２,35.9307008,139.6761569
海老沼放課後児童クラブ,（公設）放課後児童クラブ,687-4525,見沼区東新井７１０−７８,35.9048395,139.6646815
春野放課後児童クラブ,（公設）放課後児童クラブ,686-6690,見沼区春野１−７−１,35.9556838,139.6679948
東大宮放課後児童クラブ,（公設）放課後児童クラブ,687-4099,見沼区東大宮７−５−１８,35.9467591,139.645493
東宮下放課後児童クラブ,（公設）放課後児童クラブ,687-8351,見沼区東宮下２１５−１,35.9259145,139.6776449
与野八幡放課後児童クラブ,（公設）放課後児童クラブ,854-5700,中央区本町東５−２３−１４,35.8905035,139.6218811
鈴谷放課後児童クラブ,（公設）放課後児童クラブ,854-5694,中央区鈴谷５−１−１,35.8710612,139.6311672
大戸放課後児童クラブ,（公設）放課後児童クラブ,831-4320,中央区新中里１−６−２８,35.8725503,139.6354433
与野本町放課後児童クラブ,（公設）放課後児童クラブ,854-9332,中央区本町東３−５−２３,35.8840107,139.6233934
与野西北放課後児童クラブ,（公設）放課後児童クラブ,857-5889,中央区円阿弥４−３−７,35.88721,139.6075079
下落合放課後児童クラブ,（公設）放課後児童クラブ,858-0947,中央区上落合１−７−３３,35.8899739,139.6318691
上落合放課後児童クラブ,（公設）放課後児童クラブ,858-0938,中央区上落合４−１４−２４,35.8938249,139.6253201
与野南放課後児童クラブ,（公設）放課後児童クラブ,831-9536,中央区大戸６−２−１９,35.8671526,139.6348035
西浦和放課後児童クラブ,（公設）放課後児童クラブ,863-3160,桜区田島２−１６−７,35.8434562,139.6314637
大久保東放課後児童クラブ,（公設）放課後児童クラブ,855-0299,桜区大久保領家３３１,35.871326,139.6040776
土合放課後児童クラブ,（公設）放課後児童クラブ,861-8255,桜区南元宿１−１１−１,35.858801,139.6264248
栄和放課後児童クラブ,（公設）放課後児童クラブ,852-2440,桜区栄和１−７−１,35.8613438,139.6173915
田島放課後児童クラブ,（公設）放課後児童クラブ,866-8930,桜区田島１０−７−１４,35.8389981,139.6233547
新開放課後児童クラブ,（公設）放課後児童クラブ,838-2523,桜区新開２−１８−１,35.8507174,139.6174729
神田放課後児童クラブ,（公設）放課後児童クラブ,857-1118,桜区神田５４１−１,35.8749281,139.6068702
大久保放課後児童クラブ,（公設）放課後児童クラブ,855-9929,桜区五関２１,35.8721424,139.5982639
中島放課後児童クラブ,（公設）放課後児童クラブ,857-5125,桜区中島１−２８−１,35.8648519,139.6233676
常盤放課後児童クラブ,（公設）放課後児童クラブ,833-8582,浦和区常盤９−３０−９,35.8689472,139.644761
上木崎放課後児童クラブ,（公設）放課後児童クラブ,824-5778,浦和区上木崎３−１１−３３,35.8886409,139.6446804
仲町放課後児童クラブ,（公設）放課後児童クラブ,866-4077,浦和区仲町４−７−６,35.8601784,139.6451647
北浦和放課後児童クラブ,（公設）放課後児童クラブ,831-6860,浦和区北浦和２−１８−３,35.8771269,139.6491285
木崎放課後児童クラブ,（公設）放課後児童クラブ,831-6410,浦和区領家４−２０−１,35.8824363,139.6536774
本太放課後児童クラブ,（公設）放課後児童クラブ,886-2643,浦和区本太４−３−３９,35.8656386,139.6568972
針ケ谷放課後児童クラブ,（公設）放課後児童クラブ,822-6237,浦和区領家７−２−１９,35.8811049,139.6500344
大東放課後児童クラブ,（公設）放課後児童クラブ,881-6911,浦和区大東３−１４−１,35.8834452,139.6643849
高砂放課後児童クラブ,（公設）放課後児童クラブ,831-0900,浦和区岸町４−１−２９,35.8565402,139.6567957
岸町放課後児童クラブ,（公設）放課後児童クラブ,838-2073,浦和区岸町５−２０−４,35.851378,139.6508584
谷田放課後児童クラブ,（公設）放課後児童クラブ,885-9615,南区太田窪５−１０−６,35.8563425,139.6779167
大谷場放課後児童クラブ,（公設）放課後児童クラブ,887-6788,南区南浦和１−１８−３,35.8527792,139.6679633
南浦和放課後児童クラブ,（公設）放課後児童クラブ,866-4788,南区南本町１−１８−１３,35.8442508,139.6655522
沼影放課後児童クラブ,（公設）放課後児童クラブ,866-4377,南区曲本４−７−６,35.8378645,139.6403744
辻放課後児童クラブ,（公設）放課後児童クラブ,862-3255,南区辻６−３−２８,35.8332822,139.6583359
善前放課後児童クラブ,（公設）放課後児童クラブ,882-0720,南区太田窪２５００−１,35.8540178,139.6871988
文蔵放課後児童クラブ,（公設）放課後児童クラブ,837-8378,南区文蔵４−１９−３,35.837957,139.6695771
大谷口放課後児童クラブ,（公設）放課後児童クラブ,881-2781,南区大谷口９９３−１６,35.8602188,139.6811586
浦和別所放課後児童クラブ,（公設）放課後児童クラブ,837-5951,南区別所２−１５−６,35.8513468,139.6461043
大谷場東放課後児童クラブ,（公設）放課後児童クラブ,883-1255,南区大谷場２−１３−５４,35.8534215,139.6742528
浦和大里放課後児童クラブ,（公設）放課後児童クラブ,838-1441,南区鹿手袋４−１−１２,35.8487029,139.6421426
三室放課後児童クラブ,（公設）放課後児童クラブ,873-7838,緑区松木１−４−１１,35.8842246,139.6847253
中尾放課後児童クラブ,（公設）放課後児童クラブ,874-2422,緑区中尾４０−１,35.8687623,139.6821471
原山放課後児童クラブ,（公設）放課後児童クラブ,886-0199,緑区原山１−２２−２０,35.8678076,139.6737952
大牧放課後児童クラブ,（公設）放課後児童クラブ,874-0769,緑区東浦和６−１３−１５,35.8728879,139.7062927
大門放課後児童クラブ,（公設）放課後児童クラブ,878-4940,緑区大門１３６１−１３,35.8821515,139.7333349
道祖土放課後児童クラブ,（公設）放課後児童クラブ,885-2513,緑区道祖土１−１−１,35.8747684,139.6694647
野田放課後児童クラブ,（公設）放課後児童クラブ,812-3651,緑区上野田１６,35.9002313,139.7039468
城北放課後児童クラブ,（公設）放課後児童クラブ,757-8903,岩槻区岩槻６６１９,35.9620993,139.6933735
太田放課後児童クラブ,（公設）放課後児童クラブ,756-4487,岩槻区仲町１−１７−３,35.9483186,139.7038133
西原放課後児童クラブ,（公設）放課後児童クラブ,758-8011,岩槻区西原４−９７,35.9520932,139.68543
城南放課後児童クラブ,（公設）放課後児童クラブ,797-1898,岩槻区南下新井１１９１−１,35.9359332,139.712631
岩槻放課後児童クラブ,（公設）放課後児童クラブ,749-4174,岩槻区本町５−６−４５,35.9536949,139.6985366
慈恩寺放課後児童クラブ,（公設）放課後児童クラブ,795-3555,岩槻区慈恩寺２５９,35.9816894,139.7077972
東岩槻放課後児童クラブ,（公設）放課後児童クラブ,794-6151,岩槻区諏訪２−６−１,35.9701507,139.7097618
和土放課後児童クラブ,（公設）放課後児童クラブ,797-2670,岩槻区黒谷１３５３,35.9261999,139.7206831
徳力放課後児童クラブ,（公設）放課後児童クラブ,794-6106,岩槻区徳力１３６−４,35.9741002,139.71679
柏崎放課後児童クラブ,（公設）放課後児童クラブ,797-2705,岩槻区柏崎７６２,35.9337231,139.7014645
上里放課後児童クラブ,（公設）放課後児童クラブ,794-5757,岩槻区上里２−２,35.9649266,139.7043168
新和放課後児童クラブ,（公設）放課後児童クラブ,798-7762,岩槻区尾ヶ崎１２５２,35.9105858,139.7324384
